{
  "version": "1.0.0",
  "lastUpdated": "2026-06-15",
  "state": "Michigan",
  "note": "Static fallback resource database. Future: replace with live DNR / NG911 API feed.",
  "resources": [
    {
      "id": "msp-post-1",
      "name": "Michigan State Police - Gaylord Post",
      "type": "state_police",
      "phone": "989-732-5141",
      "county": "Otsego",
      "latitude": 45.0267,
      "longitude": -84.6746,
      "address": "1349 W Main St, Gaylord, MI 49735",
      "hours": "24/7",
      "notes": "Covers northern Lower Peninsula"
    },
    {
      "id": "msp-post-2",
      "name": "Michigan State Police - Marquette Post",
      "type": "state_police",
      "phone": "906-228-6811",
      "county": "Marquette",
      "latitude": 46.5476,
      "longitude": -87.3954,
      "address": "1985 US-41 S, Marquette, MI 49855",
      "hours": "24/7",
      "notes": "Covers central Upper Peninsula"
    },
    {
      "id": "msp-post-3",
      "name": "Michigan State Police - Houghton Lake Post",
      "type": "state_police",
      "phone": "989-422-5101",
      "county": "Roscommon",
      "latitude": 44.3192,
      "longitude": -84.7505,
      "address": "100 N Loxley Rd, Houghton Lake, MI 48629",
      "hours": "24/7"
    },
    {
      "id": "msp-post-4",
      "name": "Michigan State Police - St. Ignace Post",
      "type": "state_police",
      "phone": "906-643-7582",
      "county": "Mackinac",
      "latitude": 45.8706,
      "longitude": -84.7247,
      "address": "1000 N State St, St. Ignace, MI 49781",
      "hours": "24/7",
      "notes": "Covers Straits of Mackinac area"
    },
    {
      "id": "uscg-sector-det-1",
      "name": "USCG Station Charlevoix",
      "type": "coast_guard",
      "phone": "231-547-2591",
      "county": "Charlevoix",
      "latitude": 45.3181,
      "longitude": -85.2583,
      "address": "1200 Bridge St, Charlevoix, MI 49720",
      "hours": "24/7",
      "notes": "Lake Michigan / Lake Charlevoix water rescue"
    },
    {
      "id": "uscg-sector-det-2",
      "name": "USCG Station Sault Ste. Marie",
      "type": "coast_guard",
      "phone": "906-635-3233",
      "county": "Chippewa",
      "latitude": 46.5017,
      "longitude": -84.3467,
      "address": "337 Water St, Sault Ste. Marie, MI 49783",
      "hours": "24/7",
      "notes": "St. Marys River / Lake Superior water rescue"
    },
    {
      "id": "uscg-sector-det-3",
      "name": "USCG Station Traverse City",
      "type": "coast_guard",
      "phone": "231-938-9392",
      "county": "Grand Traverse",
      "latitude": 44.7694,
      "longitude": -85.6206,
      "address": "1131 Harbor Dr, Traverse City, MI 49684",
      "hours": "24/7",
      "notes": "Grand Traverse Bay / Lake Michigan"
    },
    {
      "id": "dnr-post-1",
      "name": "DNR Law Enforcement - Gaylord Field Office",
      "type": "dnr_post",
      "phone": "989-732-3541",
      "county": "Otsego",
      "latitude": 45.0255,
      "longitude": -84.6750,
      "address": "1732 W M-32, Gaylord, MI 49735",
      "hours": "Mon-Fri 8am-5pm",
      "notes": "After hours: contact MSP. Covers fishing/hunting/trail incidents"
    },
    {
      "id": "dnr-post-2",
      "name": "DNR Law Enforcement - Newberry Field Office",
      "type": "dnr_post",
      "phone": "906-293-5131",
      "county": "Luce",
      "latitude": 46.3553,
      "longitude": -85.5096,
      "address": "4000 Newberry Ave, Newberry, MI 49868",
      "hours": "Mon-Fri 8am-5pm"
    },
    {
      "id": "dnr-post-3",
      "name": "DNR Law Enforcement - Cadillac Field Office",
      "type": "dnr_post",
      "phone": "231-775-9727",
      "county": "Wexford",
      "latitude": 44.2520,
      "longitude": -85.4014,
      "address": "8015 Mackinaw Trail, Cadillac, MI 49601",
      "hours": "Mon-Fri 8am-5pm"
    },
    {
      "id": "dnr-ranger-1",
      "name": "Porcupine Mountains Wilderness SP - Ranger Station",
      "type": "ranger_station",
      "phone": "906-885-5275",
      "county": "Ontonagon",
      "latitude": 46.8022,
      "longitude": -89.7098,
      "address": "412 S Boundary Rd, Ontonagon, MI 49953",
      "hours": "Daily 8am-6pm (seasonal)",
      "notes": "Wilderness hiking / trail incident response"
    },
    {
      "id": "dnr-ranger-2",
      "name": "Pictured Rocks National Lakeshore - Munising Visitor Center",
      "type": "ranger_station",
      "phone": "906-387-3700",
      "county": "Alger",
      "latitude": 46.4095,
      "longitude": -86.6578,
      "address": "1505 Sand Point Rd, Munising, MI 49862",
      "hours": "Daily 9am-5pm (seasonal)",
      "notes": "Lake Superior / kayak / trail incidents"
    },
    {
      "id": "dnr-ranger-3",
      "name": "Sleeping Bear Dunes National Lakeshore - Empire Visitor Center",
      "type": "ranger_station",
      "phone": "231-326-4700",
      "county": "Leelanau",
      "latitude": 44.8100,
      "longitude": -86.0561,
      "address": "9922 Front St, Empire, MI 49630",
      "hours": "Daily 9am-5pm (seasonal)"
    },
    {
      "id": "sheriff-cheboygan",
      "name": "Cheboygan County Sheriff",
      "type": "county_sheriff",
      "phone": "231-627-3155",
      "county": "Cheboygan",
      "latitude": 45.6470,
      "longitude": -84.4738,
      "address": "870 S Main St, Cheboygan, MI 49721",
      "hours": "24/7"
    },
    {
      "id": "sheriff-emmet",
      "name": "Emmet County Sheriff",
      "type": "county_sheriff",
      "phone": "231-347-8161",
      "county": "Emmet",
      "latitude": 45.3583,
      "longitude": -84.9558,
      "address": "1329 Harbor-Petoskey Rd, Petoskey, MI 49770",
      "hours": "24/7"
    },
    {
      "id": "sheriff-roscommon",
      "name": "Roscommon County Sheriff",
      "type": "county_sheriff",
      "phone": "989-275-5101",
      "county": "Roscommon",
      "latitude": 44.3606,
      "longitude": -84.5913,
      "address": "107 W Maple St, Roscommon, MI 48653",
      "hours": "24/7"
    },
    {
      "id": "sheriff-alger",
      "name": "Alger County Sheriff",
      "type": "county_sheriff",
      "phone": "906-387-4444",
      "county": "Alger",
      "latitude": 46.3608,
      "longitude": -86.6481,
      "address": "101 Court St, Munising, MI 49862",
      "hours": "24/7"
    },
    {
      "id": "sheriff-marquette",
      "name": "Marquette County Sheriff",
      "type": "county_sheriff",
      "phone": "906-225-8435",
      "county": "Marquette",
      "latitude": 46.5436,
      "longitude": -87.3953,
      "address": "236 W Baraga Ave, Marquette, MI 49855",
      "hours": "24/7"
    },
    {
      "id": "hospital-munson",
      "name": "Munson Medical Center",
      "type": "hospital",
      "phone": "231-935-5000",
      "county": "Grand Traverse",
      "latitude": 44.7640,
      "longitude": -85.6187,
      "address": "1105 Sixth St, Traverse City, MI 49684",
      "hours": "24/7 Emergency",
      "notes": "Level II Trauma Center"
    },
    {
      "id": "hospital-marquette",
      "name": "UP Health System - Marquette",
      "type": "hospital",
      "phone": "906-225-4000",
      "county": "Marquette",
      "latitude": 46.5478,
      "longitude": -87.4161,
      "address": "580 W College Ave, Marquette, MI 49855",
      "hours": "24/7 Emergency",
      "notes": "Upper Peninsula regional trauma center"
    },
    {
      "id": "hospital-petoskey",
      "name": "McLaren Northern Michigan Hospital",
      "type": "hospital",
      "phone": "231-487-4000",
      "county": "Emmet",
      "latitude": 45.3617,
      "longitude": -84.9540,
      "address": "416 Connable Ave, Petoskey, MI 49770",
      "hours": "24/7 Emergency"
    },
    {
      "id": "hospital-sault",
      "name": "War Memorial Hospital - Sault Ste. Marie",
      "type": "hospital",
      "phone": "906-635-4460",
      "county": "Chippewa",
      "latitude": 46.4875,
      "longitude": -84.3591,
      "address": "500 Osborn Blvd, Sault Ste. Marie, MI 49783",
      "hours": "24/7 Emergency"
    },
    {
      "id": "sar-otsego",
      "name": "Otsego County Search & Rescue",
      "type": "search_and_rescue",
      "phone": "989-731-2121",
      "county": "Otsego",
      "latitude": 45.0255,
      "longitude": -84.6750,
      "address": "225 W Main St, Gaylord, MI 49735",
      "hours": "On-call 24/7",
      "notes": "Wilderness SAR, lost hiker / hunter response"
    },
    {
      "id": "sar-marquette",
      "name": "Marquette County Search & Rescue",
      "type": "search_and_rescue",
      "phone": "906-225-8435",
      "county": "Marquette",
      "latitude": 46.5436,
      "longitude": -87.3953,
      "address": "236 W Baraga Ave, Marquette, MI 49855",
      "hours": "On-call 24/7"
    },
    {
      "id": "marina-torch-lake",
      "name": "Torch Lake Marina & Boat Launch",
      "type": "marina",
      "phone": "231-377-7100",
      "county": "Antrim",
      "latitude": 45.0067,
      "longitude": -85.2775,
      "address": "7256 US-31, Central Lake, MI 49622",
      "hours": "Seasonal May-Oct",
      "notes": "Boating emergency dock access"
    },
    {
      "id": "marina-houghton-lake",
      "name": "Houghton Lake Public Marina",
      "type": "marina",
      "phone": "989-422-3111",
      "county": "Roscommon",
      "latitude": 44.3191,
      "longitude": -84.7505,
      "address": "100 Lake St, Houghton Lake, MI 48629",
      "hours": "Seasonal Apr-Oct"
    },
    {
      "id": "trailhead-north-country",
      "name": "North Country Trail - Mackinaw City Trailhead Office",
      "type": "trailhead_office",
      "phone": "231-436-5664",
      "county": "Cheboygan",
      "latitude": 45.7767,
      "longitude": -84.7278,
      "address": "10 S Huron Ave, Mackinaw City, MI 49701",
      "hours": "Seasonal Jun-Sep",
      "notes": "Connects to 4,600-mile North Country National Scenic Trail"
    },
    {
      "id": "fire-gaylord",
      "name": "Gaylord Fire Department",
      "type": "fire_station",
      "phone": "989-732-5141",
      "county": "Otsego",
      "latitude": 45.0267,
      "longitude": -84.6752,
      "address": "305 E Main St, Gaylord, MI 49735",
      "hours": "24/7"
    },
    {
      "id": "fire-munising",
      "name": "Munising Fire Department",
      "type": "fire_station",
      "phone": "906-387-2135",
      "county": "Alger",
      "latitude": 46.4080,
      "longitude": -86.6570,
      "address": "411 Elm Ave, Munising, MI 49862",
      "hours": "24/7"
    }
  ]
}
